[{"url":"http://thiendia.com/diendan/forums/gai-goi-cao-cap-sai-gon.212/","name":"Saigon pretty","lat":10.76845,"lon":106.680512,"girlSum":11},{"url":"http://thiendia.com/diendan/forums/gai-goi-khu-vuc-khac.196/","name":"Outer Ha Noi","lat":20.992563,"lon":105.817566,"girlSum":24},{"url":"http://thiendia.com/diendan/forums/gai-goi-ha-noi-co-video.223/","name":"Ha Noi pretty","lat":21.015466,"lon":105.799419,"girlSum":11},{"url":"http://thiendia.com/diendan/forums/gai-goi-di-dem-tai-tp-hcm.221/","name":"Saigon overnight","lat":10.723233,"lon":106.629299,"girlSum":17},{"url":"http://thiendia.com/diendan/forums/gai-goi-go-vap-phu-nhuan.210/","name":"Go Vap/Phu Nhuan","lat":10.813059,"lon":106.675965,"girlSum":24},{"url":"http://thiendia.com/diendan/forums/gai-goi-hang-cao-cap-ha-noi.197/","name":"Pho Co","lat":21.029042,"lon":105.852405,"girlSum":19},{"url":"http://thiendia.com/diendan/forums/gai-goi-khu-tan-binh.209/","name":"Tan Binh","lat":10.802261,"lon":106.664324,"girlSum":14},{"url":"http://thiendia.com/diendan/forums/gai-goi-khu-vuc-hai-phong.216/","name":"Hai Phong","lat":20.855937,"lon":106.687223,"girlSum":6},{"url":"http://thiendia.com/diendan/forums/gai-goi-khu-quan-1-q3-q5.214/","name":"Saigon center","lat":10.769335,"lon":106.693637,"girlSum":4},{"url":"http://thiendia.com/diendan/forums/gai-goi-khu-tran-duy-hung-nguyen-thi-dinh.194/","name":"Tran Duy Hung/Nguyen Thi Dinh","lat":21.013362,"lon":105.802816,"girlSum":54},{"url":"http://thiendia.com/diendan/forums/gai-goi-khu-vuc-noi-thanh-ha-noi.193/","name":"Ha Noi center","lat":21.024348,"lon":105.841126,"girlSum":35},{"url":"http://thiendia.com/diendan/forums/gai-goi-mien-dong.217/","name":"Bien Hoa","lat":10.95084,"lon":106.826417,"girlSum":2},{"url":"http://thiendia.com/diendan/forums/gai-goi-di-dem-tai-ha-noi.220/","name":"Ha Noi overnight","lat":21.017369,"lon":105.807176,"girlSum":17},{"url":"http://thiendia.com/diendan/forums/trung-tam-gai-goi-share-hang-mien-trung.222/","name":"Da Nang","lat":16.045158,"lon":108.214147,"girlSum":5},{"url":"http://thiendia.com/diendan/forums/gai-goi-khu-trung-son-quan-8.207/","name":"District 8","lat":10.736186,"lon":106.690019,"girlSum":22},{"url":"http://thiendia.com/diendan/forums/may-bay-thuong-mai-chat-luong.213/","name":"Saigon cheap","lat":10.765879,"lon":106.638566,"girlSum":34},{"url":"http://thiendia.com/diendan/forums/gai-goi-gia-re-va-may-bay-thuong-mai.206/","name":"Ha Noi cheap","lat":21.006412,"lon":105.805647,"girlSum":40},{"url":"http://thiendia.com/diendan/forums/gai-goi-khu-quan-10.208/","name":"District 10","lat":10.774495,"lon":106.672432,"girlSum":42},{"url":"http://thiendia.com/diendan/forums/gai-goi-cau-giay-nguyen-khanh-toan-hqv.195/","name":"Cau Giay/Nguyen Khanh Toan","lat":21.040645,"lon":105.795748,"girlSum":31}]