[ {
  "name" : "Saigon pretty",
  "lat" : 10.76845,
  "lon" : 106.680512,
  "urls" : [ "https://thiendia.com/diendan/forums/gai-goi-cao-cap-sai-gon.212/" ],
  "girlSum" : 9
}, {
  "name" : "Saigon overnight",
  "lat" : 10.723233,
  "lon" : 106.629299,
  "urls" : [ "https://thiendia.com/diendan/forums/gai-goi-di-dem-tai-tp-hcm.221/" ],
  "girlSum" : 0
}, {
  "name" : "Go Vap/Phu Nhuan",
  "lat" : 10.813059,
  "lon" : 106.675965,
  "urls" : [ "https://thiendia.com/diendan/forums/gai-goi-go-vap-phu-nhuan.210/", "https://gaigoivl.com/gai-goi-sai-gon/gai-goi-quan-go-vap/", "https://gaigoivl.com/gai-goi-sai-gon/gai-goi-quan-phu-nhuan/", "https://gaigoivl.com/gai-goi-sai-gon/gai-goi-quan-binh-thanh/", "https://gaigoivl.com/gai-goi-sai-gon/gai-goi-quan-tan-phu/" ],
  "girlSum" : 22
}, {
  "name" : "Hai Phong",
  "lat" : 20.855937,
  "lon" : 106.687223,
  "urls" : [ "https://thiendia.com/diendan/forums/gai-goi-khu-vuc-hai-phong.216/" ],
  "girlSum" : 199
}, {
  "name" : "Saigon center",
  "lat" : 10.769335,
  "lon" : 106.693637,
  "urls" : [ "https://thiendia.com/diendan/forums/gai-goi-khu-quan-1-q3-q5.214/", "https://gaigoivl.com/gai-goi-sai-gon/gai-goi-quan-1/", "https://gaigoivl.com/gai-goi-sai-gon/gai-goi-quan-3/" ],
  "girlSum" : 1
}, {
  "name" : "Tran Duy Hung/Nguyen Thi Dinh",
  "lat" : 21.013362,
  "lon" : 105.802816,
  "urls" : [ "https://thiendia.com/diendan/forums/gai-goi-tran-duy-hung.194/", "https://thiendia.com/diendan/forums/gai-goi-nguyen-thi-dinh-hoang-ngan.258/", "https://gaigoivl.com/gai-goi-ha-noi/gai-goi-tran-duy-hung/", "https://gaigoivl.com/gai-goi-ha-noi/gai-goi-thanh-xuan-nga-tu-so/" ],
  "girlSum" : 62
}, {
  "name" : "Ha Noi center",
  "lat" : 21.024348,
  "lon" : 105.841126,
  "urls" : [ "https://thiendia.com/diendan/forums/gai-goi-khu-vuc-noi-thanh-ha-noi.193/" ],
  "girlSum" : 16
}, {
  "name" : "Da Nang",
  "lat" : 16.045158,
  "lon" : 108.214147,
  "urls" : [ "https://thiendia.com/diendan/forums/trung-tam-gai-goi-share-hang-mien-trung.222/", "https://gaigoivl.com/gai-goi-da-nang/" ],
  "girlSum" : 0
}, {
  "name" : "District 8",
  "lat" : 10.736186,
  "lon" : 106.690019,
  "urls" : [ "https://thiendia.com/diendan/forums/gai-goi-quan-6-binh-tan.257/", "https://thiendia.com/diendan/forums/gai-goi-khu-trung-son-quan-8.207/", "https://gaigoivl.com/gai-goi-sai-gon/gai-goi-quan-6/", "https://gaigoivl.com/gai-goi-sai-gon/gai-goi-quan-8/" ],
  "girlSum" : 40
}, {
  "name" : "Saigon cheap",
  "lat" : 10.765879,
  "lon" : 106.638566,
  "urls" : [ "https://thiendia.com/diendan/forums/may-bay-thuong-mai-chat-luong.213/" ],
  "girlSum" : 0
}, {
  "name" : "Cau Giay/Nguyen Khanh Toan",
  "lat" : 21.040645,
  "lon" : 105.795748,
  "urls" : [ "https://thiendia.com/diendan/forums/gai-goi-cau-giay-nguyen-khanh-toan-hqv.195/" ],
  "girlSum" : 39
}, {
  "name" : "Outer Ha Noi",
  "lat" : 20.992563,
  "lon" : 105.817566,
  "urls" : [ "https://thiendia.com/diendan/forums/gai-goi-khu-vuc-khac.196/", "https://thiendia.com/diendan/forums/gai-goi-long-bien-gia-lam.245/", "https://thiendia.com/diendan/forums/gai-goi-my-dinh-dinh-thon.250/", "https://gaigoivl.com/gai-goi-ha-noi/gai-goi-my-dinh-dinh-thon/" ],
  "girlSum" : 7
}, {
  "name" : "Ha Noi pretty",
  "lat" : 21.015466,
  "lon" : 105.799419,
  "urls" : [ "https://thiendia.com/diendan/forums/gai-goi-ha-noi-co-video.223/" ],
  "girlSum" : 0
}, {
  "name" : "Pho Co",
  "lat" : 21.029042,
  "lon" : 105.852405,
  "urls" : [ "https://thiendia.com/diendan/forums/gai-goi-hang-cao-cap-ha-noi.197/", "https://gaigoivl.com/gai-goi-ha-noi/gai-goi-long-bien/", "https://gaigoivl.com/gai-goi-ha-noi/gai-goi-chua-boc/" ],
  "girlSum" : 32
}, {
  "name" : "Tan Binh",
  "lat" : 10.802261,
  "lon" : 106.664324,
  "urls" : [ "https://thiendia.com/diendan/forums/gai-goi-khu-tan-binh.209/", "https://gaigoivl.com/gai-goi-sai-gon/gai-goi-quan-tan-binh/" ],
  "girlSum" : 26
}, {
  "name" : "Bien Hoa",
  "lat" : 10.95084,
  "lon" : 106.826417,
  "urls" : [ "https://thiendia.com/diendan/forums/gai-goi-dong-nai.256/", "https://thiendia.com/diendan/forums/gai-goi-mien-dong.217/" ],
  "girlSum" : 2
}, {
  "name" : "Ha Noi overnight",
  "lat" : 21.017369,
  "lon" : 105.807176,
  "urls" : [ "https://thiendia.com/diendan/forums/gai-goi-di-dem-tai-ha-noi.220/" ],
  "girlSum" : 15
}, {
  "name" : "Ha Noi cheap",
  "lat" : 21.006412,
  "lon" : 105.805647,
  "urls" : [ "https://thiendia.com/diendan/forums/gai-goi-gia-re-va-may-bay-thuong-mai.206/" ],
  "girlSum" : 3
}, {
  "name" : "District 10",
  "lat" : 10.774495,
  "lon" : 106.672432,
  "urls" : [ "https://thiendia.com/diendan/forums/gai-goi-khu-quan-10.208/", "https://gaigoivl.com/gai-goi-sai-gon/gai-goi-quan-10/", "https://gaigoivl.com/gai-goi-sai-gon/gai-goi-quan-12/" ],
  "girlSum" : 16
} ]