[ {
  "name" : "Saigon pretty",
  "lat" : 10.76845,
  "lon" : 106.680512,
  "urls" : [ "http://thiendia.com/diendan/forums/gai-goi-cao-cap-sai-gon.212/" ],
  "girlSum" : 0
}, {
  "name" : "Outer Ha Noi",
  "lat" : 20.992563,
  "lon" : 105.817566,
  "urls" : [ "http://thiendia.com/diendan/forums/gai-goi-khu-vuc-khac.196/", "http://gaigoivl.com/gai-goi-my-dinh-htm/" ],
  "girlSum" : 2
}, {
  "name" : "Ha Noi pretty",
  "lat" : 21.015466,
  "lon" : 105.799419,
  "urls" : [ "http://thiendia.com/diendan/forums/gai-goi-ha-noi-co-video.223/" ],
  "girlSum" : 0
}, {
  "name" : "Saigon overnight",
  "lat" : 10.723233,
  "lon" : 106.629299,
  "urls" : [ "http://thiendia.com/diendan/forums/gai-goi-di-dem-tai-tp-hcm.221/" ],
  "girlSum" : 0
}, {
  "name" : "Go Vap/Phu Nhuan",
  "lat" : 10.813059,
  "lon" : 106.675965,
  "urls" : [ "http://thiendia.com/diendan/forums/gai-goi-go-vap-phu-nhuan.210/", "http://gaigoivl.com/gai-goi-quan-go-vap/", "http://gaigoivl.com/gai-goi-quan-phu-nhuan/", "http://gaigoivl.com/gai-goi-quan-binh-thanh/", "http://gaigoivl.com/gai-goi-quan-tan-phu/" ],
  "girlSum" : 18
}, {
  "name" : "Pho Co",
  "lat" : 21.029042,
  "lon" : 105.852405,
  "urls" : [ "http://thiendia.com/diendan/forums/gai-goi-hang-cao-cap-ha-noi.197/", "http://gaigoivl.com/gai-goi-pho-co-long-bien/", "http://gaigoivl.com/gai-goi-thai-ha-chua-boc/" ],
  "girlSum" : 14
}, {
  "name" : "Tan Binh",
  "lat" : 10.802261,
  "lon" : 106.664324,
  "urls" : [ "http://thiendia.com/diendan/forums/gai-goi-khu-tan-binh.209/", "http://gaigoivl.com/gai-goi-quan-tan-binh/" ],
  "girlSum" : 29
}, {
  "name" : "Hai Phong",
  "lat" : 20.855937,
  "lon" : 106.687223,
  "urls" : [ "http://thiendia.com/diendan/forums/gai-goi-khu-vuc-hai-phong.216/" ],
  "girlSum" : 21
}, {
  "name" : "Saigon center",
  "lat" : 10.769335,
  "lon" : 106.693637,
  "urls" : [ "http://thiendia.com/diendan/forums/gai-goi-khu-quan-1-q3-q5.214/", "http://gaigoivl.com/gai-goi-quan-1-3/" ],
  "girlSum" : 7
}, {
  "name" : "Tran Duy Hung/Nguyen Thi Dinh",
  "lat" : 21.013362,
  "lon" : 105.802816,
  "urls" : [ "http://thiendia.com/diendan/forums/gai-goi-khu-tran-duy-hung-nguyen-thi-dinh.194/", "http://gaigoivl.com/gai-goi-tran-duy-hung/", "http://gaigoivl.com/gai-goi-lang-nga-tu-so/", "http://gaigoivl.com/gai-goi-kim-lien-xa-dan/", "http://gaigoivl.com/gai-goi-khu-vuc-khac/" ],
  "girlSum" : 43
}, {
  "name" : "Ha Noi center",
  "lat" : 21.024348,
  "lon" : 105.841126,
  "urls" : [ "http://thiendia.com/diendan/forums/gai-goi-khu-vuc-noi-thanh-ha-noi.193/" ],
  "girlSum" : 25
}, {
  "name" : "Bien Hoa",
  "lat" : 10.95084,
  "lon" : 106.826417,
  "urls" : [ "http://thiendia.com/diendan/forums/gai-goi-mien-dong.217/" ],
  "girlSum" : 4
}, {
  "name" : "Ha Noi overnight",
  "lat" : 21.017369,
  "lon" : 105.807176,
  "urls" : [ "http://thiendia.com/diendan/forums/gai-goi-di-dem-tai-ha-noi.220/", "http://gaigoivl.com/gai-goi-qua-dem/" ],
  "girlSum" : 22
}, {
  "name" : "Da Nang",
  "lat" : 16.045158,
  "lon" : 108.214147,
  "urls" : [ "http://thiendia.com/diendan/forums/trung-tam-gai-goi-share-hang-mien-trung.222/", "http://gaigoivl.com/gai-goi-da-nang/" ],
  "girlSum" : 0
}, {
  "name" : "District 8",
  "lat" : 10.736186,
  "lon" : 106.690019,
  "urls" : [ "http://thiendia.com/diendan/forums/gai-goi-khu-trung-son-quan-8.207/", "http://gaigoivl.com/gai-goi-quan-6-8/" ],
  "girlSum" : 32
}, {
  "name" : "Saigon cheap",
  "lat" : 10.765879,
  "lon" : 106.638566,
  "urls" : [ "http://thiendia.com/diendan/forums/may-bay-thuong-mai-chat-luong.213/" ],
  "girlSum" : 39
}, {
  "name" : "Ha Noi cheap",
  "lat" : 21.006412,
  "lon" : 105.805647,
  "urls" : [ "http://thiendia.com/diendan/forums/gai-goi-gia-re-va-may-bay-thuong-mai.206/" ],
  "girlSum" : 42
}, {
  "name" : "District 10",
  "lat" : 10.774495,
  "lon" : 106.672432,
  "urls" : [ "http://thiendia.com/diendan/forums/gai-goi-khu-quan-10.208/", "http://gaigoivl.com/gai-goi-quan-10-12/" ],
  "girlSum" : 24
}, {
  "name" : "Cau Giay/Nguyen Khanh Toan",
  "lat" : 21.040645,
  "lon" : 105.795748,
  "urls" : [ "http://thiendia.com/diendan/forums/gai-goi-cau-giay-nguyen-khanh-toan-hqv.195/", "http://gaigoivl.com/gai-goi-nguyen-khanh-toan/", "http://gaigoivl.com/gai-goi-nguyen-xien/" ],
  "girlSum" : 44
} ]